code/results/Result POI visibility (Sentinel-1-1).csv

Satellite name,POI name,Start time (UTC),Stop time (UTC),Duration (s),Mean solar elevation (°)
Sentinel-1-1,Toulouse,2024-07-10 03:46:40,2024-07-10 03:53:20,400,12.911773031992034
Sentinel-1-1,Toulouse,2024-07-10 05:36:40,2024-07-10 05:45:00,500,32.80238285293322
Sentinel-1-1,Toulouse,2024-07-10 07:28:20,2024-07-10 07:35:00,400,52.638003583721414
Sentinel-1-1,Toulouse,2024-07-10 09:20:00,2024-07-10 09:23:20,200,67.54784627122712
Sentinel-1-1,Lisbonne,2024-07-10 03:43:20,2024-07-10 03:50:00,400,-6.066723005075104
Sentinel-1-1,Lisbonne,2024-07-10 05:33:20,2024-07-10 05:41:40,500,13.12518312348784
Sentinel-1-1,Lisbonne,2024-07-10 07:25:00,2024-07-10 07:33:20,500,34.380792564036284
Sentinel-1-1,Lisbonne,2024-07-10 09:16:40,2024-07-10 09:25:00,500,55.71658183488135
